{
  "110009":{
    "office_name":"Nirankari Colony",
    "office_type":"S.O",
    "state":"Delhi",
    "district":"North",
    "lat":28.70869718,
    "lon":77.19713309,
    "area_m2":19410515.12
  },
  "110110":{
    "office_name":"Nodal Delivery Centre Rohini",
    "office_type":"S.O",
    "state":"Delhi",
    "district":"North West",
    "lat":28.70762185,
    "lon":77.10752794,
    "area_m2":9933205.935
  },
  "122008":{
    "office_name":"DLF Ph II",
    "office_type":"S.O",
    "state":"Haryana",
    "district":"Gurugram",
    "lat":28.48534358,
    "lon":77.08189667,
    "area_m2":2366228.275
  },
  "122010":{
    "office_name":"DLF Ph III",
    "office_type":"S.O",
    "state":"Haryana",
    "district":"Gurugram",
    "lat":28.49366961,
    "lon":77.10154016,
    "area_m2":9120998.814
  },
  "141002":{
    "office_name":"New Model Town",
    "office_type":"S.O",
    "state":"Punjab",
    "district":"Ludhiana",
    "lat":30.89066342,
    "lon":75.838968,
    "area_m2":6506807.916
  },
  "141004":{
    "office_name":"PAU",
    "office_type":"S.O",
    "state":"Punjab",
    "district":"Ludhiana",
    "lat":30.90121983,
    "lon":75.79992912,
    "area_m2":8091895.599
  },
  "141006":{
    "office_name":"Gne College",
    "office_type":"S.O",
    "state":"Punjab",
    "district":"Ludhiana",
    "lat":30.85822873,
    "lon":75.85688715,
    "area_m2":16857021.7
  },
  "141007":{
    "office_name":"Basti Jodhewal",
    "office_type":"S.O",
    "state":"Punjab",
    "district":"Ludhiana",
    "lat":30.97838372,
    "lon":75.91473536,
    "area_m2":123829892.0
  },
  "141010":{
    "office_name":"Moti Nagar",
    "office_type":"S.O",
    "state":"Punjab",
    "district":"Ludhiana",
    "lat":30.88301622,
    "lon":75.90943864,
    "area_m2":36071703.01
  },
  "141011":{
    "office_name":"Nodal Delivery Centre Ludhiana",
    "office_type":"S.O",
    "state":"Punjab",
    "district":"",
    "lat":30.93374514,
    "lon":75.88095145,
    "area_m2":9690179.756
  },
  "141012":{
    "office_name":"Aggar Nagar",
    "office_type":"S.O",
    "state":"Punjab",
    "district":"Ludhiana",
    "lat":30.89419467,
    "lon":75.78524995,
    "area_m2":11482426.71
  },
  "141013":{
    "office_name":"Basant Avenue",
    "office_type":"S.O",
    "state":"Punjab",
    "district":"Ludhiana",
    "lat":30.86912647,
    "lon":75.82606278,
    "area_m2":7454330.041
  },
  "141014":{
    "office_name":"Dhandari Kalan",
    "office_type":"S.O",
    "state":"Punjab",
    "district":"Ludhiana",
    "lat":30.87478175,
    "lon":75.90025383,
    "area_m2":4534889.418
  },
  "141015":{
    "office_name":"Mundian Kalan",
    "office_type":"S.O",
    "state":"Punjab",
    "district":"Ludhiana",
    "lat":30.92699603,
    "lon":75.93725952,
    "area_m2":48939055.99
  },
  "141016":{
    "office_name":"Lohora",
    "office_type":"S.O",
    "state":"Punjab",
    "district":"Ludhiana",
    "lat":30.84865057,
    "lon":75.88805994,
    "area_m2":392375.5537
  },
  "141017":{
    "office_name":"Jugiana",
    "office_type":"S.O",
    "state":"Punjab",
    "district":"Ludhiana",
    "lat":30.84896262,
    "lon":75.91447779,
    "area_m2":3193602.779
  },
  "141422":{
    "office_name":"Bopa Rai Kalan Ludhiana",
    "office_type":"S.O",
    "state":"Punjab",
    "district":"Ludhiana",
    "lat":30.80309854,
    "lon":75.6501884,
    "area_m2":28868420.09
  },
  "142028":{
    "office_name":"Threeke",
    "office_type":"S.O",
    "state":"Punjab",
    "district":"Ludhiana",
    "lat":30.87495363,
    "lon":75.77959032,
    "area_m2":6009358.828
  },
  "143003":{
    "office_name":"JF Mill",
    "office_type":"S.O",
    "state":"Punjab",
    "district":"Amritsar",
    "lat":31.64676353,
    "lon":74.91234368,
    "area_m2":17752193.8
  },
  "143004":{
    "office_name":"Khanna Nagar",
    "office_type":"S.O",
    "state":"Punjab",
    "district":"Amritsar",
    "lat":31.6427086,
    "lon":74.90095761,
    "area_m2":1210410.419
  },
  "144003":{
    "office_name":"Model Town Jalandhar",
    "office_type":"S.O",
    "state":"Punjab",
    "district":"Jalandhar",
    "lat":31.30036311,
    "lon":75.55811894,
    "area_m2":8289320.377
  },
  "144004":{
    "office_name":"Guru Ravidass Road",
    "office_type":"S.O",
    "state":"Punjab",
    "district":"Jalandhar",
    "lat":31.41020166,
    "lon":75.57743853,
    "area_m2":56186805.35
  },
  "144006":{
    "office_name":"PAP Lines Jalandhar Cantt",
    "office_type":"S.O",
    "state":"Punjab",
    "district":"Jalandhar",
    "lat":31.313993,
    "lon":75.6157904,
    "area_m2":2333071.331
  },
  "144007":{
    "office_name":"Ladhewali",
    "office_type":"S.O",
    "state":"Punjab",
    "district":"Jalandhar",
    "lat":31.33037081,
    "lon":75.63400881,
    "area_m2":11043961.42
  },
  "144009":{
    "office_name":"Chogitti",
    "office_type":"S.O",
    "state":"Punjab",
    "district":"Jalandhar",
    "lat":31.33236707,
    "lon":75.61110576,
    "area_m2":5474442.238
  },
  "144010":{
    "office_name":"Dhanowali",
    "office_type":"S.O",
    "state":"Punjab",
    "district":"Jalandhar",
    "lat":31.29753738,
    "lon":75.6562233,
    "area_m2":3499172.683
  },
  "144011":{
    "office_name":"REC Jalandhar",
    "office_type":"S.O",
    "state":"Punjab",
    "district":"Jalandhar",
    "lat":31.29698898,
    "lon":75.57311797,
    "area_m2":1884935.945
  },
  "144012":{
    "office_name":"Reru",
    "office_type":"S.O",
    "state":"Punjab",
    "district":"Jalandhar",
    "lat":31.36263287,
    "lon":75.58910982,
    "area_m2":6723840.616
  },
  "144015":{
    "office_name":"Nodal Parcel Delivery Centre Jalandhar",
    "office_type":"S.O",
    "state":"Punjab",
    "district":"",
    "lat":31.31124713,
    "lon":75.55868693,
    "area_m2":534601.3297
  },
  "144021":{
    "office_name":"Basti Bawa Khel",
    "office_type":"S.O",
    "state":"Punjab",
    "district":"Jalandhar",
    "lat":31.36103136,
    "lon":75.51609808,
    "area_m2":44084949.63
  },
  "144022":{
    "office_name":"Urban Estate Jalandhar",
    "office_type":"S.O",
    "state":"Punjab",
    "district":"Jalandhar",
    "lat":31.27380789,
    "lon":75.59337424,
    "area_m2":18303705.17
  },
  "144023":{
    "office_name":"Dakoha",
    "office_type":"S.O",
    "state":"Punjab",
    "district":"Jalandhar",
    "lat":31.31290163,
    "lon":75.64142083,
    "area_m2":2795743.461
  },
  "144027":{
    "office_name":"Suranussi",
    "office_type":"S.O",
    "state":"Punjab",
    "district":"Jalandhar",
    "lat":31.38648416,
    "lon":75.5359699,
    "area_m2":8680868.111
  },
  "147008":{
    "office_name":"Nodal Delivery Center Patiala",
    "office_type":"S.O",
    "state":"Punjab",
    "district":"Patiala",
    "lat":30.35343798,
    "lon":76.4043748,
    "area_m2":6701153.993
  },
  "151006":{
    "office_name":"NDC Bathinda",
    "office_type":"S.O",
    "state":"Punjab",
    "district":"Bathinda",
    "lat":30.20740388,
    "lon":74.9578042,
    "area_m2":8264516.774
  },
  "160005":{
    "office_name":"IBC Chandigarh",
    "office_type":"S.O",
    "state":"Chandigarh",
    "district":"Chandigarh",
    "lat":30.69694597,
    "lon":76.77310234,
    "area_m2":872237.444
  },
  "160006":{
    "office_name":"NDC Chandigarh",
    "office_type":"S.O",
    "state":"Chandigarh",
    "district":"Chandigarh",
    "lat":30.74399129,
    "lon":76.77903252,
    "area_m2":544319.7785
  },
  "160016":{
    "office_name":"Nodal Delivery Office Chandigarh",
    "office_type":"S.O",
    "state":"Chandigarh",
    "district":"Chandigarh",
    "lat":30.74737101,
    "lon":76.7765672,
    "area_m2":974314.6015
  },
  "160040":{
    "office_name":"Sector 40 Chandigarh",
    "office_type":"S.O",
    "state":"Chandigarh",
    "district":"",
    "lat":30.74066431,
    "lon":76.7323014,
    "area_m2":2930796.471
  },
  "160069":{
    "office_name":"Chandigarh Sector 69",
    "office_type":"S.O",
    "state":"Punjab",
    "district":"",
    "lat":30.69170543,
    "lon":76.72082179,
    "area_m2":1758471.639
  },
  "173028":{
    "office_name":"Rajban",
    "office_type":"S.O",
    "state":"Himachal Pradesh",
    "district":"",
    "lat":30.51705873,
    "lon":77.6662425,
    "area_m2":12744649.78
  },
  "175122":{
    "office_name":"Larji",
    "office_type":"S.O",
    "state":"Himachal Pradesh",
    "district":"",
    "lat":31.73267808,
    "lon":77.28193195,
    "area_m2":68145738.94
  },
  "176057":{
    "office_name":"Dari",
    "office_type":"S.O",
    "state":"Himachal Pradesh",
    "district":"Kangra",
    "lat":32.18955807,
    "lon":76.34501156,
    "area_m2":35935327.73
  },
  "176213":{
    "office_name":"Hpbose Dharamsala",
    "office_type":"S.O",
    "state":"Himachal Pradesh",
    "district":"Kangra",
    "lat":32.21970239,
    "lon":76.32205368,
    "area_m2":13293871.91
  },
  "176219":{
    "office_name":"Mcleodganj",
    "office_type":"S.O",
    "state":"Himachal Pradesh",
    "district":"Kangra",
    "lat":32.26399372,
    "lon":76.34738156,
    "area_m2":29033189.1
  },
  "182104":{
    "office_name":"PTC Udhampur",
    "office_type":"S.O",
    "state":"Jammu And Kashmir",
    "district":"Udhampur",
    "lat":32.88654845,
    "lon":75.11312209,
    "area_m2":12440866.14
  },
  "191203":{
    "office_name":"Sonamarg",
    "office_type":"S.O",
    "state":"Jammu And Kashmir",
    "district":"",
    "lat":34.29190892,
    "lon":75.30016268,
    "area_m2":5973721.94
  },
  "192230":{
    "office_name":"Sheshanag Sessional",
    "office_type":"S.O",
    "state":"Jammu And Kashmir",
    "district":"",
    "lat":34.14233998,
    "lon":75.44375729,
    "area_m2":543335427.8
  },
  "192306":{
    "office_name":"Rajpora",
    "office_type":"S.O",
    "state":"Jammu And Kashmir",
    "district":"Pulwama",
    "lat":33.81690214,
    "lon":75.04429684,
    "area_m2":858581.0255
  },
  "194105":{
    "office_name":"Baroo",
    "office_type":"S.O",
    "state":"Ladakh",
    "district":"Kargil",
    "lat":34.44875545,
    "lon":76.02419983,
    "area_m2":922754248.5
  },
  "194402":{
    "office_name":"Saspol",
    "office_type":"S.O",
    "state":"Ladakh",
    "district":"Leh Ladakh",
    "lat":34.57188008,
    "lon":76.70256177,
    "area_m2":1489935813.0
  },
  "194403":{
    "office_name":"Panikhar",
    "office_type":"S.O",
    "state":"Ladakh",
    "district":"",
    "lat":33.92203598,
    "lon":76.21126148,
    "area_m2":873516254.1
  },
  "194404":{
    "office_name":"Nyoma Mud",
    "office_type":"S.O",
    "state":"Ladakh",
    "district":"Leh Ladakh",
    "lat":34.54812299,
    "lon":79.02563751,
    "area_m2":65934245898.0
  },
  "201018":{
    "office_name":"Model Town",
    "office_type":"S.O",
    "state":"Uttar Pradesh",
    "district":"Ghaziabad",
    "lat":28.65070573,
    "lon":77.43560795,
    "area_m2":1905965.097
  },
  "201021":{
    "office_name":"Abhay Khand 03",
    "office_type":"S.O",
    "state":"Uttar Pradesh",
    "district":"Ghaziabad",
    "lat":28.63868705,
    "lon":77.35192957,
    "area_m2":3264585.292
  },
  "201302":{
    "office_name":"NDC Noida",
    "office_type":"H.O",
    "state":"Uttar Pradesh",
    "district":"Gautam Buddha Nagar",
    "lat":28.58621472,
    "lon":77.31744043,
    "area_m2":7268860.229
  },
  "201317":{
    "office_name":"Sec 128 Noida SO",
    "office_type":"S.O",
    "state":"Uttar Pradesh",
    "district":"Gautam Buddha Nagar",
    "lat":28.47462786,
    "lon":77.51535391,
    "area_m2":2822374.144
  },
  "209726":{
    "office_name":"Makrand Nagar",
    "office_type":"S.O",
    "state":"Uttar Pradesh",
    "district":"Kannauj",
    "lat":27.05907592,
    "lon":79.87391919,
    "area_m2":211876648.8
  },
  "211009":{
    "office_name":"Udyog Nagar Allahabad",
    "office_type":"S.O",
    "state":"Uttar Pradesh",
    "district":"",
    "lat":25.36499003,
    "lon":81.9149611,
    "area_m2":52709850.8
  },
  "211023":{
    "office_name":"Allahabad NDC",
    "office_type":"S.O",
    "state":"Uttar Pradesh",
    "district":"Prayagraj",
    "lat":25.44936458,
    "lon":81.82783526,
    "area_m2":2533210.08
  },
  "221407":{
    "office_name":"NDC Varanasi",
    "office_type":"S.O",
    "state":"Uttar Pradesh",
    "district":"Varanasi",
    "lat":25.31534344,
    "lon":83.02401614,
    "area_m2":4199978.332
  },
  "222101":{
    "office_name":"Belwai",
    "office_type":"S.O",
    "state":"Uttar Pradesh",
    "district":"",
    "lat":26.21936069,
    "lon":82.64010043,
    "area_m2":63490884.13
  },
  "225002":{
    "office_name":"Barabanki Sugar Mill",
    "office_type":"S.O",
    "state":"Uttar Pradesh",
    "district":"Barabanki",
    "lat":26.93773877,
    "lon":81.18620058,
    "area_m2":3782968.543
  },
  "242123":{
    "office_name":"Jograjpur",
    "office_type":"S.O",
    "state":"Uttar Pradesh",
    "district":"",
    "lat":28.37314041,
    "lon":80.29300561,
    "area_m2":226299579.0
  },
  "248141":{
    "office_name":"Ghangora",
    "office_type":"S.O",
    "state":"Uttarakhand",
    "district":"",
    "lat":30.39202919,
    "lon":77.99728157,
    "area_m2":31559332.87
  },
  "249195":{
    "office_name":"Mahidanda",
    "office_type":"S.O",
    "state":"Uttarakhand",
    "district":"Uttar Kashi",
    "lat":30.72381083,
    "lon":78.40200223,
    "area_m2":65229133.05
  },
  "301002":{
    "office_name":"Motidoongri",
    "office_type":"S.O",
    "state":"Rajasthan",
    "district":"Alwar",
    "lat":27.54836549,
    "lon":76.64387452,
    "area_m2":5119073.781
  },
  "301712":{
    "office_name":"Bagheri Kalan",
    "office_type":"S.O",
    "state":"Rajasthan",
    "district":"",
    "lat":27.8964766,
    "lon":76.66459658,
    "area_m2":24307574.77
  },
  "302036":{
    "office_name":"Jaisinghpura Khore",
    "office_type":"S.O",
    "state":"Rajasthan",
    "district":"Jaipur",
    "lat":26.94950606,
    "lon":75.87036064,
    "area_m2":5139792.198
  },
  "302040":{
    "office_name":"Nangal Jaisabohara",
    "office_type":"S.O",
    "state":"Rajasthan",
    "district":"Jaipur",
    "lat":26.97280622,
    "lon":75.73728842,
    "area_m2":6167931.255
  },
  "302043":{
    "office_name":"Muhana",
    "office_type":"S.O",
    "state":"Rajasthan",
    "district":"Jaipur",
    "lat":26.75119197,
    "lon":75.68449226,
    "area_m2":35021023.52
  },
  "302045":{
    "office_name":"Sirsi",
    "office_type":"S.O",
    "state":"Rajasthan",
    "district":"Jaipur",
    "lat":26.91519268,
    "lon":75.69402248,
    "area_m2":5792170.108
  },
  "313015":{
    "office_name":"Jhamar Kotra",
    "office_type":"S.O",
    "state":"Rajasthan",
    "district":"",
    "lat":24.48210157,
    "lon":73.85805604,
    "area_m2":103338459.2
  },
  "322021":{
    "office_name":"Alanpur",
    "office_type":"S.O",
    "state":"Rajasthan",
    "district":"Sawai Madhopur",
    "lat":26.01827785,
    "lon":76.35982759,
    "area_m2":47166984.58
  },
  "323302":{
    "office_name":"Jawharsagar Dam",
    "office_type":"S.O",
    "state":"Rajasthan",
    "district":"",
    "lat":25.10891113,
    "lon":75.70255373,
    "area_m2":52008118.13
  },
  "323305":{
    "office_name":"Rawatbhatta Bazar",
    "office_type":"S.O",
    "state":"Rajasthan",
    "district":"Chittorgarh",
    "lat":24.9261915,
    "lon":75.59288401,
    "area_m2":23904674.27
  },
  "323306":{
    "office_name":"Vikram Nagar",
    "office_type":"S.O",
    "state":"Rajasthan",
    "district":"Chittorgarh",
    "lat":24.86707154,
    "lon":75.48824967,
    "area_m2":367594348.8
  },
  "331030":{
    "office_name":"Mahansar",
    "office_type":"S.O",
    "state":"Rajasthan",
    "district":"Jhunjhunu",
    "lat":28.18884763,
    "lon":75.08022171,
    "area_m2":24421774.86
  },
  "335023":{
    "office_name":"Dalpatsinghpur",
    "office_type":"S.O",
    "state":"Rajasthan",
    "district":"Ganganagar",
    "lat":29.93853727,
    "lon":73.50873416,
    "area_m2":111876225.4
  },
  "335705":{
    "office_name":"Sardargarh",
    "office_type":"S.O",
    "state":"Rajasthan",
    "district":"Ganganagar",
    "lat":29.35848977,
    "lon":73.73821617,
    "area_m2":163838685.3
  },
  "341542":{
    "office_name":"IA Bidiad",
    "office_type":"S.O",
    "state":"Rajasthan",
    "district":"Nagaur",
    "lat":26.96139592,
    "lon":74.67641822,
    "area_m2":89253567.7
  },
  "342002":{
    "office_name":"Jodhpur City",
    "office_type":"H.O",
    "state":"Rajasthan",
    "district":"Jodhpur",
    "lat":26.29875059,
    "lon":73.02507791,
    "area_m2":4466709.162
  },
  "360560":{
    "office_name":"Ranavav Railway Station",
    "office_type":"S.O",
    "state":"Gujarat",
    "district":"",
    "lat":21.66856814,
    "lon":69.67403235,
    "area_m2":26252651.94
  },
  "360577":{
    "office_name":"Porbandar GIDC",
    "office_type":"S.O",
    "state":"Gujarat",
    "district":"Porbandar",
    "lat":21.66230309,
    "lon":69.61766018,
    "area_m2":3177083.329
  },
  "360578":{
    "office_name":"Chhaya",
    "office_type":"S.O",
    "state":"Gujarat",
    "district":"Porbandar",
    "lat":21.63783524,
    "lon":69.67348195,
    "area_m2":12903298.0
  },
  "361009":{
    "office_name":"Bedi",
    "office_type":"S.O",
    "state":"Gujarat",
    "district":"Jamnagar",
    "lat":22.49697603,
    "lon":69.98930531,
    "area_m2":93498005.25
  },
  "361141":{
    "office_name":"Sikka Tps",
    "office_type":"S.O",
    "state":"Gujarat",
    "district":"",
    "lat":22.43401184,
    "lon":69.84451196,
    "area_m2":11520964.05
  },
  "362004":{
    "office_name":"Junagadh Bhavnath",
    "office_type":"S.O",
    "state":"Gujarat",
    "district":"",
    "lat":21.52263367,
    "lon":70.54855569,
    "area_m2":135579404.0
  },
  "362229":{
    "office_name":"Keshod Akshaygadh",
    "office_type":"S.O",
    "state":"Gujarat",
    "district":"",
    "lat":21.30057723,
    "lon":70.33504429,
    "area_m2":111680487.8
  },
  "362235":{
    "office_name":"Shardagram",
    "office_type":"S.O",
    "state":"Gujarat",
    "district":"",
    "lat":21.09587471,
    "lon":70.12709463,
    "area_m2":6182166.916
  },
  "362266":{
    "office_name":"Veraval Rayon Factory",
    "office_type":"S.O",
    "state":"Gujarat",
    "district":"",
    "lat":20.95381843,
    "lon":70.31422393,
    "area_m2":41358130.19
  },
  "362269":{
    "office_name":"Veraval Udyognagar",
    "office_type":"S.O",
    "state":"Gujarat",
    "district":"",
    "lat":20.97946509,
    "lon":70.41257149,
    "area_m2":31777710.71
  },
  "362276":{
    "office_name":"Siddhigram",
    "office_type":"S.O",
    "state":"Gujarat",
    "district":"",
    "lat":20.7936625,
    "lon":70.62680608,
    "area_m2":40317611.55
  },
  "362725":{
    "office_name":"Kodinar Khadudyog",
    "office_type":"S.O",
    "state":"Gujarat",
    "district":"",
    "lat":20.84555639,
    "lon":70.6882501,
    "area_m2":84866023.93
  },
  "362730":{
    "office_name":"Timbi",
    "office_type":"S.O",
    "state":"Gujarat",
    "district":"",
    "lat":20.89368765,
    "lon":71.23778783,
    "area_m2":143472880.9
  },
  "363002":{
    "office_name":"Surendranagar MPSC",
    "office_type":"S.O",
    "state":"Gujarat",
    "district":"Surendranagar",
    "lat":22.72687662,
    "lon":71.64648518,
    "area_m2":7391539.584
  },
  "363035":{
    "office_name":"Wadhwancity Ind Estate",
    "office_type":"S.O",
    "state":"Gujarat",
    "district":"Surendranagar",
    "lat":22.71468759,
    "lon":71.66058808,
    "area_m2":1554939.707
  },
  "363415":{
    "office_name":"Bhragupur",
    "office_type":"S.O",
    "state":"Gujarat",
    "district":"",
    "lat":22.42361396,
    "lon":71.75414629,
    "area_m2":176328347.3
  },
  "363425":{
    "office_name":"Hadalabhal",
    "office_type":"S.O",
    "state":"Gujarat",
    "district":"",
    "lat":22.52457029,
    "lon":72.09991084,
    "area_m2":282448841.3
  },
  "363635":{
    "office_name":"Khakhrechi",
    "office_type":"S.O",
    "state":"Gujarat",
    "district":"",
    "lat":23.0758959,
    "lon":70.91605373,
    "area_m2":63739620.14
  },
  "364465":{
    "office_name":"Derdi Kumbaji",
    "office_type":"S.O",
    "state":"Gujarat",
    "district":"",
    "lat":21.75411031,
    "lon":70.98745625,
    "area_m2":46139969.79
  },
  "364470":{
    "office_name":"Sultanpur Rajkot",
    "office_type":"S.O",
    "state":"Gujarat",
    "district":"",
    "lat":21.77053369,
    "lon":70.86442792,
    "area_m2":56264839.94
  },
  "364485":{
    "office_name":"Amarnagar Rajkot",
    "office_type":"S.O",
    "state":"Gujarat",
    "district":"",
    "lat":21.74861936,
    "lon":70.72328505,
    "area_m2":97418257.97
  },
  "364490":{
    "office_name":"Vasavad",
    "office_type":"S.O",
    "state":"Gujarat",
    "district":"",
    "lat":21.79724465,
    "lon":71.032948,
    "area_m2":75229812.91
  },
  "365545":{
    "office_name":"Nageshri",
    "office_type":"S.O",
    "state":"Gujarat",
    "district":"",
    "lat":20.94158729,
    "lon":71.33831425,
    "area_m2":101201394.9
  },
  "365565":{
    "office_name":"Krankach",
    "office_type":"S.O",
    "state":"Gujarat",
    "district":"",
    "lat":21.48187253,
    "lon":71.46388634,
    "area_m2":105281900.1
  },
  "365660":{
    "office_name":"Sarsiya",
    "office_type":"S.O",
    "state":"Gujarat",
    "district":"",
    "lat":21.20856503,
    "lon":71.06363082,
    "area_m2":238977940.4
  },
  "370511":{
    "office_name":"Sanghipuram",
    "office_type":"S.O",
    "state":"Gujarat",
    "district":"",
    "lat":23.49202462,
    "lon":68.6032165,
    "area_m2":1463621007.0
  },
  "370602":{
    "office_name":"ATPS Nani Chher",
    "office_type":"S.O",
    "state":"Gujarat",
    "district":"",
    "lat":23.78672608,
    "lon":68.65129684,
    "area_m2":28882565.21
  },
  "370640":{
    "office_name":"Jakhau",
    "office_type":"S.O",
    "state":"Gujarat",
    "district":"",
    "lat":23.21590937,
    "lon":68.71327743,
    "area_m2":123719717.7
  },
  "380003":{
    "office_name":"Delivery Hub Ahmedabad",
    "office_type":"S.O",
    "state":"Gujarat",
    "district":"Ahmadabad",
    "lat":23.08696086,
    "lon":72.63215623,
    "area_m2":7467459.942
  },
  "380014":{
    "office_name":"Navjivan",
    "office_type":"S.O",
    "state":"Gujarat",
    "district":"Ahmadabad",
    "lat":23.04394187,
    "lon":72.56714956,
    "area_m2":1183917.116
  },
  "382024":{
    "office_name":"Gandhinagar Sector 23",
    "office_type":"S.O",
    "state":"Gujarat",
    "district":"Gandhinagar",
    "lat":23.24175714,
    "lon":72.64565799,
    "area_m2":2490738.052
  },
  "382030":{
    "office_name":"Gandhinagar Sector 29",
    "office_type":"S.O",
    "state":"Gujarat",
    "district":"Gandhinagar",
    "lat":23.24105571,
    "lon":72.66716353,
    "area_m2":2395135.426
  },
  "382122":{
    "office_name":"Dantali",
    "office_type":"B.O",
    "state":"Gujarat",
    "district":"Gandhinagar",
    "lat":23.25279027,
    "lon":72.49238435,
    "area_m2":32706049.56
  },
  "382165":{
    "office_name":"Kalyanpura",
    "office_type":"S.O",
    "state":"Gujarat",
    "district":"",
    "lat":23.15450698,
    "lon":72.23870254,
    "area_m2":182925335.3
  },
  "382440":{
    "office_name":"Vatva",
    "office_type":"S.O",
    "state":"Gujarat",
    "district":"",
    "lat":22.94430494,
    "lon":72.620588,
    "area_m2":16075342.89
  },
  "382705":{
    "office_name":"Dangarwa",
    "office_type":"S.O",
    "state":"Gujarat",
    "district":"",
    "lat":23.36780123,
    "lon":72.46543586,
    "area_m2":115074816.1
  },
  "382710":{
    "office_name":"Jagudan",
    "office_type":"S.O",
    "state":"Gujarat",
    "district":"",
    "lat":23.51904072,
    "lon":72.41147907,
    "area_m2":32995321.75
  },
  "382715":{
    "office_name":"Kadi",
    "office_type":"S.O",
    "state":"Gujarat",
    "district":"",
    "lat":23.30965116,
    "lon":72.31848847,
    "area_m2":370169681.9
  },
  "382728":{
    "office_name":"Thol IE",
    "office_type":"S.O",
    "state":"Gujarat",
    "district":"",
    "lat":23.17394951,
    "lon":72.36055193,
    "area_m2":161175841.4
  },
  "382730":{
    "office_name":"Langhnaj",
    "office_type":"S.O",
    "state":"Gujarat",
    "district":"",
    "lat":23.44720159,
    "lon":72.50467779,
    "area_m2":62429777.67
  },
  "382732":{
    "office_name":"Ambaliasan",
    "office_type":"S.O",
    "state":"Gujarat",
    "district":"",
    "lat":23.43659951,
    "lon":72.40830866,
    "area_m2":65371650.23
  },
  "382745":{
    "office_name":"Bajana",
    "office_type":"S.O",
    "state":"Gujarat",
    "district":"",
    "lat":23.07113943,
    "lon":71.76077526,
    "area_m2":349199559.9
  },
  "382750":{
    "office_name":"Dasada",
    "office_type":"S.O",
    "state":"Gujarat",
    "district":"",
    "lat":23.43799173,
    "lon":71.90805796,
    "area_m2":347235722.6
  },
  "382755":{
    "office_name":"Zinzuwada",
    "office_type":"S.O",
    "state":"Gujarat",
    "district":"",
    "lat":23.3698216,
    "lon":71.65449319,
    "area_m2":156161088.7
  },
  "382760":{
    "office_name":"Kharaghoda",
    "office_type":"S.O",
    "state":"Gujarat",
    "district":"",
    "lat":23.20897309,
    "lon":71.73224678,
    "area_m2":45873177.61
  },
  "382765":{
    "office_name":"Patdi",
    "office_type":"S.O",
    "state":"Gujarat",
    "district":"",
    "lat":23.21142516,
    "lon":71.78871804,
    "area_m2":453641516.3
  },
  "382775":{
    "office_name":"Lakhtar",
    "office_type":"S.O",
    "state":"Gujarat",
    "district":"",
    "lat":22.85827949,
    "lon":71.84371891,
    "area_m2":395316026.2
  },
  "382780":{
    "office_name":"Adariyana",
    "office_type":"S.O",
    "state":"Gujarat",
    "district":"",
    "lat":23.44224672,
    "lon":71.70679742,
    "area_m2":132057619.7
  },
  "382815":{
    "office_name":"Gavada",
    "office_type":"S.O",
    "state":"Gujarat",
    "district":"",
    "lat":23.5743374,
    "lon":72.7128354,
    "area_m2":18750435.38
  },
  "382820":{
    "office_name":"Gerita Kolavda R S",
    "office_type":"S.O",
    "state":"Gujarat",
    "district":"",
    "lat":23.5829466,
    "lon":72.67010039,
    "area_m2":33752912.36
  },
  "382825":{
    "office_name":"Gozaria",
    "office_type":"S.O",
    "state":"Gujarat",
    "district":"",
    "lat":23.47146735,
    "lon":72.56000856,
    "area_m2":25301032.75
  },
  "382830":{
    "office_name":"Kukarwada",
    "office_type":"S.O",
    "state":"Gujarat",
    "district":"",
    "lat":23.57679559,
    "lon":72.60876973,
    "area_m2":66961023.12
  },
  "382840":{
    "office_name":"Ladol",
    "office_type":"S.O",
    "state":"Gujarat",
    "district":"",
    "lat":23.62926851,
    "lon":72.74071855,
    "area_m2":89923199.46
  },
  "382850":{
    "office_name":"Pilvai",
    "office_type":"S.O",
    "state":"Gujarat",
    "district":"",
    "lat":23.54129071,
    "lon":72.70877308,
    "area_m2":19455352.26
  },
  "382860":{
    "office_name":"Sardarpur Mahesana",
    "office_type":"S.O",
    "state":"Gujarat",
    "district":"",
    "lat":23.69692588,
    "lon":72.75134983,
    "area_m2":47549373.46
  },
  "382865":{
    "office_name":"Vasai Dabhala",
    "office_type":"S.O",
    "state":"Gujarat",
    "district":"",
    "lat":23.54162971,
    "lon":72.55579388,
    "area_m2":80892182.96
  },
  "382870":{
    "office_name":"Vijapur Bazar",
    "office_type":"S.O",
    "state":"Gujarat",
    "district":"",
    "lat":23.582359,
    "lon":72.78171676,
    "area_m2":223351043.3
  },
  "384205":{
    "office_name":"Panchot",
    "office_type":"S.O",
    "state":"Gujarat",
    "district":"",
    "lat":23.62674544,
    "lon":72.33391696,
    "area_m2":84156442.87
  },
  "384210":{
    "office_name":"Becharaji",
    "office_type":"S.O",
    "state":"Gujarat",
    "district":"",
    "lat":23.50409661,
    "lon":72.1027212,
    "area_m2":256683843.1
  },
  "384212":{
    "office_name":"Modhera",
    "office_type":"S.O",
    "state":"Gujarat",
    "district":"",
    "lat":23.58143021,
    "lon":72.17776535,
    "area_m2":145490743.2
  },
  "384215":{
    "office_name":"Brahmanwada",
    "office_type":"S.O",
    "state":"Gujarat",
    "district":"",
    "lat":23.86001957,
    "lon":72.34793546,
    "area_m2":20622853.6
  },
  "388121":{
    "office_name":"Vithal Udyognagar",
    "office_type":"S.O",
    "state":"Gujarat",
    "district":"Anand",
    "lat":22.52908218,
    "lon":72.91961583,
    "area_m2":3611311.64
  },
  "389240":{
    "office_name":"Kadana",
    "office_type":"S.O",
    "state":"Gujarat",
    "district":"",
    "lat":23.34648618,
    "lon":73.78589599,
    "area_m2":372247771.7
  },
  "390008":{
    "office_name":"Eme",
    "office_type":"S.O",
    "state":"Gujarat",
    "district":"",
    "lat":22.34205866,
    "lon":73.20534125,
    "area_m2":11849658.09
  },
  "391121":{
    "office_name":"Devaliya",
    "office_type":"S.O",
    "state":"Gujarat",
    "district":"",
    "lat":21.93125148,
    "lon":73.67275692,
    "area_m2":134856837.4
  },
  "391155":{
    "office_name":"Jabugam",
    "office_type":"S.O",
    "state":"Gujarat",
    "district":"",
    "lat":22.31548494,
    "lon":73.7696196,
    "area_m2":88556671.39
  },
  "391175":{
    "office_name":"Kadipani",
    "office_type":"S.O",
    "state":"Gujarat",
    "district":"",
    "lat":21.97396841,
    "lon":74.0639768,
    "area_m2":147636968.4
  },
  "391346":{
    "office_name":"Petrochemical",
    "office_type":"S.O",
    "state":"Gujarat",
    "district":"",
    "lat":22.37752312,
    "lon":73.09753337,
    "area_m2":3009146.072
  },
  "393155":{
    "office_name":"Gora Colony",
    "office_type":"S.O",
    "state":"Gujarat",
    "district":"Narmada",
    "lat":21.82182718,
    "lon":73.71349942,
    "area_m2":204336020.7
  },
  "394111":{
    "office_name":"Kim Char Rasta",
    "office_type":"S.O",
    "state":"Gujarat",
    "district":"Surat",
    "lat":21.43114518,
    "lon":72.94836484,
    "area_m2":15929913.15
  },
  "394116":{
    "office_name":"Panoli IE",
    "office_type":"S.O",
    "state":"Gujarat",
    "district":"",
    "lat":21.52977173,
    "lon":72.92521224,
    "area_m2":8496585.05
  },
  "394245":{
    "office_name":"Zervavra",
    "office_type":"S.O",
    "state":"Gujarat",
    "district":"Surat",
    "lat":20.93787407,
    "lon":73.14814997,
    "area_m2":52705590.62
  },
  "394326":{
    "office_name":"Vav Kathodara",
    "office_type":"S.O",
    "state":"Gujarat",
    "district":"Surat",
    "lat":21.23721976,
    "lon":72.98820873,
    "area_m2":38281245.31
  },
  "394360":{
    "office_name":"Kakrapar",
    "office_type":"S.O",
    "state":"Gujarat",
    "district":"Surat",
    "lat":21.25249135,
    "lon":73.38939832,
    "area_m2":74801256.85
  },
  "394365":{
    "office_name":"Raniamba",
    "office_type":"S.O",
    "state":"Gujarat",
    "district":"Tapi",
    "lat":21.03319364,
    "lon":73.69635094,
    "area_m2":334765955.6
  },
  "394541":{
    "office_name":"Saras",
    "office_type":"S.O",
    "state":"Gujarat",
    "district":"Surat",
    "lat":21.32565992,
    "lon":72.72879609,
    "area_m2":12336431.21
  },
  "394633":{
    "office_name":"Gadat Tapi",
    "office_type":"S.O",
    "state":"Gujarat",
    "district":"Tapi",
    "lat":20.9721306,
    "lon":73.40937917,
    "area_m2":87276230.12
  },
  "394641":{
    "office_name":"Vedchhi",
    "office_type":"S.O",
    "state":"Gujarat",
    "district":"Tapi",
    "lat":21.04430656,
    "lon":73.32798426,
    "area_m2":23155667.06
  },
  "396424":{
    "office_name":"Kabilpore",
    "office_type":"S.O",
    "state":"Gujarat",
    "district":"Navsari",
    "lat":20.95747439,
    "lon":72.97499917,
    "area_m2":8021938.355
  },
  "396440":{
    "office_name":"Karadi",
    "office_type":"S.O",
    "state":"Gujarat",
    "district":"Navsari",
    "lat":20.93740935,
    "lon":72.84180222,
    "area_m2":26840348.8
  },
  "401609":{
    "office_name":"Suryanagar Thane",
    "office_type":"S.O",
    "state":"Maharashtra",
    "district":"",
    "lat":19.98187261,
    "lon":73.0174628,
    "area_m2":133911190.0
  },
  "401610":{
    "office_name":"Dapchari",
    "office_type":"S.O",
    "state":"Maharashtra",
    "district":"",
    "lat":20.0638942,
    "lon":72.86302805,
    "area_m2":73735395.01
  },
  "421001":{
    "office_name":"Ulhasnagar 1",
    "office_type":"S.O",
    "state":"Maharashtra",
    "district":"",
    "lat":19.24524347,
    "lon":73.16660826,
    "area_m2":1487132.229
  },
  "424116":{
    "office_name":"Belganga",
    "office_type":"S.O",
    "state":"Maharashtra",
    "district":"",
    "lat":20.50058578,
    "lon":74.90412305,
    "area_m2":125890721.0
  },
  "424209":{
    "office_name":"Fattepur",
    "office_type":"S.O",
    "state":"Maharashtra",
    "district":"",
    "lat":20.59868367,
    "lon":75.90575154,
    "area_m2":60038489.86
  },
  "440009":{
    "office_name":"Hanuman Nagar",
    "office_type":"S.O",
    "state":"Maharashtra",
    "district":"",
    "lat":21.13262011,
    "lon":79.11493039,
    "area_m2":6209286.365
  },
  "453332":{
    "office_name":"Sonway Bhensolay Audygik Kshet",
    "office_type":"S.O",
    "state":"Madhya Pradesh",
    "district":"",
    "lat":22.63445021,
    "lon":75.75137366,
    "area_m2":33392415.77
  },
  "462007":{
    "office_name":"MACT",
    "office_type":"S.O",
    "state":"Madhya Pradesh",
    "district":"",
    "lat":23.21097102,
    "lon":77.40681498,
    "area_m2":3943287.047
  },
  "464776":{
    "office_name":"Panjra",
    "office_type":"S.O",
    "state":"Madhya Pradesh",
    "district":"Raisen",
    "lat":23.09253038,
    "lon":78.62104534,
    "area_m2":187229433.1
  },
  "472446":{
    "office_name":"Sendri",
    "office_type":"S.O",
    "state":"Madhya Pradesh",
    "district":"",
    "lat":25.4994175,
    "lon":78.89765828,
    "area_m2":103782825.5
  },
  "480554":{
    "office_name":"Nandan",
    "office_type":"S.O",
    "state":"Madhya Pradesh",
    "district":"",
    "lat":22.22491378,
    "lon":78.48919546,
    "area_m2":124012958.0
  },
  "484552":{
    "office_name":"Sgtps Pali",
    "office_type":"S.O",
    "state":"Madhya Pradesh",
    "district":"",
    "lat":23.25690087,
    "lon":81.06641734,
    "area_m2":178460068.4
  },
  "486004":{
    "office_name":"Rewa City",
    "office_type":"S.O",
    "state":"Madhya Pradesh",
    "district":"Rewa",
    "lat":24.54925035,
    "lon":81.25902339,
    "area_m2":14244333.58
  },
  "488051":{
    "office_name":"Barrach",
    "office_type":"S.O",
    "state":"Madhya Pradesh",
    "district":"",
    "lat":24.55454263,
    "lon":80.10985172,
    "area_m2":152957524.1
  },
  "490027":{
    "office_name":"Vasali Nagar PO",
    "office_type":"S.O",
    "state":"Chhattisgarh",
    "district":"",
    "lat":21.22319831,
    "lon":81.35341715,
    "area_m2":449202.0174
  },
  "491224":{
    "office_name":"Ranchirai",
    "office_type":"B.O",
    "state":"Chhattisgarh",
    "district":"",
    "lat":20.9734626,
    "lon":81.41075628,
    "area_m2":19370146.79
  },
  "492007":{
    "office_name":"VIP Colony",
    "office_type":"S.O",
    "state":"Chhattisgarh",
    "district":"",
    "lat":21.25369812,
    "lon":81.67078724,
    "area_m2":2478503.533
  },
  "492017":{
    "office_name":"IBC Raipur",
    "office_type":"S.O",
    "state":"Chhattisgarh",
    "district":"Raipur",
    "lat":21.262969,
    "lon":81.67429162,
    "area_m2":2402065.762
  },
  "494005":{
    "office_name":"Dharampura",
    "office_type":"S.O",
    "state":"Chhattisgarh",
    "district":"",
    "lat":19.09165501,
    "lon":81.95544979,
    "area_m2":61170537.98
  },
  "494551":{
    "office_name":"Bhansi",
    "office_type":"S.O",
    "state":"Chhattisgarh",
    "district":"",
    "lat":18.76931916,
    "lon":81.23641444,
    "area_m2":235078676.1
  },
  "495223":{
    "office_name":"Bilaspur Industrial Estate",
    "office_type":"S.O",
    "state":"Chhattisgarh",
    "district":"",
    "lat":22.03623275,
    "lon":82.12231239,
    "area_m2":64705694.18
  },
  "500022":{
    "office_name":"Central Secretariat",
    "office_type":"S.O",
    "state":"Telangana",
    "district":"Hyderabad",
    "lat":17.4094287,
    "lon":78.47067732,
    "area_m2":232332.6131
  },
  "500025":{
    "office_name":"Padmaraonagar",
    "office_type":"S.O",
    "state":"Telangana",
    "district":"Hyderabad",
    "lat":17.42911508,
    "lon":78.50573357,
    "area_m2":2941656.242
  },
  "500063":{
    "office_name":"LIC Division",
    "office_type":"S.O",
    "state":"Telangana",
    "district":"Hyderabad",
    "lat":17.40480358,
    "lon":78.47229232,
    "area_m2":775974.9827
  },
  "500093":{
    "office_name":"Vikasnagar Hyderabad",
    "office_type":"S.O",
    "state":"Telangana",
    "district":"Medchal Malkajgiri",
    "lat":17.35104942,
    "lon":78.39036221,
    "area_m2":5768255.714
  },
  "500095":{
    "office_name":"State Bank Of India",
    "office_type":"S.O",
    "state":"Telangana",
    "district":"Hyderabad",
    "lat":17.38403832,
    "lon":78.48432567,
    "area_m2":1868236.804
  },
  "500105":{
    "office_name":"Vengal Rao Nagar",
    "office_type":"S.O",
    "state":"Telangana",
    "district":"",
    "lat":17.44142425,
    "lon":78.43800955,
    "area_m2":455018.7075
  },
  "500107":{
    "office_name":"Gopanpally",
    "office_type":"S.O",
    "state":"Telangana",
    "district":"Hyderabad",
    "lat":17.44687208,
    "lon":78.30114163,
    "area_m2":2754460.013
  },
  "500109":{
    "office_name":"IBC Hyderabad",
    "office_type":"S.O",
    "state":"Telangana",
    "district":"",
    "lat":17.36116444,
    "lon":78.46358414,
    "area_m2":1360738.764
  },
  "500115":{
    "office_name":"Autonagar",
    "office_type":"S.O",
    "state":"Telangana",
    "district":"Ranga Reddy",
    "lat":17.35814427,
    "lon":78.57442294,
    "area_m2":7734678.499
  },
  "501511":{
    "office_name":"Sanghinagar",
    "office_type":"S.O",
    "state":"Telangana",
    "district":"Ranga Reddy",
    "lat":17.26987415,
    "lon":78.63628137,
    "area_m2":64226355.46
  },
  "507103":{
    "office_name":"Venkateshkhani",
    "office_type":"S.O",
    "state":"Telangana",
    "district":"Bhadradri Kothagudem",
    "lat":17.45984248,
    "lon":80.72581596,
    "area_m2":66894376.44
  },
  "507121":{
    "office_name":"Kunavaram",
    "office_type":"S.O",
    "state":"Andhra Pradesh",
    "district":"",
    "lat":17.4857229,
    "lon":81.25356033,
    "area_m2":125701328.8
  },
  "507135":{
    "office_name":"VR Puram",
    "office_type":"S.O",
    "state":"Andhra Pradesh",
    "district":"",
    "lat":17.51835306,
    "lon":81.41069967,
    "area_m2":671552600.3
  },
  "507138":{
    "office_name":"Gouthampur",
    "office_type":"S.O",
    "state":"Telangana",
    "district":"Bhadradri Kothagudem",
    "lat":17.48734113,
    "lon":80.63585706,
    "area_m2":7393806.044
  },
  "523156":{
    "office_name":"Mgc Market C",
    "office_type":"S.O",
    "state":"Andhra Pradesh",
    "district":"Prakasam",
    "lat":15.801309,
    "lon":80.35761064,
    "area_m2":8202444.342
  },
  "524301":{
    "office_name":"Somasila Project",
    "office_type":"S.O",
    "state":"Andhra Pradesh",
    "district":"",
    "lat":14.53489932,
    "lon":79.33188421,
    "area_m2":42877545.2
  },
  "530015":{
    "office_name":"Zinc Smelter P",
    "office_type":"S.O",
    "state":"Andhra Pradesh",
    "district":"Visakhapatanam",
    "lat":17.69506776,
    "lon":83.22422489,
    "area_m2":3145876.052
  },
  "530035":{
    "office_name":"Visakhapatnam Port",
    "office_type":"S.O",
    "state":"Andhra Pradesh",
    "district":"",
    "lat":17.70531566,
    "lon":83.28315159,
    "area_m2":5853216.899
  },
  "533339":{
    "office_name":"Devipatnam",
    "office_type":"S.O",
    "state":"Andhra Pradesh",
    "district":"East Godavari",
    "lat":17.35467905,
    "lon":81.682105,
    "area_m2":206904089.3
  },
  "560014":{
    "office_name":"Jalahalli East",
    "office_type":"S.O",
    "state":"Karnataka",
    "district":"",
    "lat":13.07264418,
    "lon":77.54454471,
    "area_m2":3683782.132
  },
  "560019":{
    "office_name":"Gaviopuram Extension",
    "office_type":"S.O",
    "state":"Karnataka",
    "district":"",
    "lat":12.94712796,
    "lon":77.56241066,
    "area_m2":1973987.894
  },
  "560039":{
    "office_name":"Nayandahalli",
    "office_type":"S.O",
    "state":"Karnataka",
    "district":"",
    "lat":12.93966177,
    "lon":77.52472366,
    "area_m2":3535826.741
  },
  "560046":{
    "office_name":"Benson Town",
    "office_type":"S.O",
    "state":"Karnataka",
    "district":"Bengaluru Urban",
    "lat":13.00031871,
    "lon":77.60143469,
    "area_m2":2324377.028
  },
  "560052":{
    "office_name":"Vasanth Nagar",
    "office_type":"S.O",
    "state":"Karnataka",
    "district":"",
    "lat":12.99077024,
    "lon":77.59207783,
    "area_m2":1593564.182
  },
  "560069":{
    "office_name":"Jayanagar East",
    "office_type":"S.O",
    "state":"Karnataka",
    "district":"",
    "lat":12.94070496,
    "lon":77.58782218,
    "area_m2":1712373.469
  },
  "560500":{
    "office_name":"CPC Income Tax Department",
    "office_type":"S.O",
    "state":"Karnataka",
    "district":"Bengaluru Urban",
    "lat":12.86516737,
    "lon":77.66082311,
    "area_m2":1016635.61
  },
  "563102":{
    "office_name":"Kolar Extension",
    "office_type":"S.O",
    "state":"Karnataka",
    "district":"",
    "lat":13.0936509,
    "lon":78.10502261,
    "area_m2":156243739.6
  },
  "563160":{
    "office_name":"Malur Railway Station",
    "office_type":"S.O",
    "state":"Karnataka",
    "district":"Kolar",
    "lat":12.93842872,
    "lon":77.93155259,
    "area_m2":112702684.4
  },
  "577118":{
    "office_name":"Durgadabetta",
    "office_type":"S.O",
    "state":"Karnataka",
    "district":"",
    "lat":13.36346214,
    "lon":75.39051389,
    "area_m2":31272437.72
  },
  "577142":{
    "office_name":"Kudremukh",
    "office_type":"S.O",
    "state":"Karnataka",
    "district":"",
    "lat":13.1968169,
    "lon":75.23383948,
    "area_m2":51527079.87
  },
  "577448":{
    "office_name":"Masthikatte",
    "office_type":"S.O",
    "state":"Karnataka",
    "district":"",
    "lat":13.6920698,
    "lon":75.0668881,
    "area_m2":181698340.0
  },
  "581197":{
    "office_name":"Karnataka Janapada Vishwa Vidyalaya Gotagodi",
    "office_type":"S.O",
    "state":"Karnataka",
    "district":"",
    "lat":15.02570984,
    "lon":75.1945796,
    "area_m2":14991847.5
  },
  "581305":{
    "office_name":"Kathinkon",
    "office_type":"S.O",
    "state":"Karnataka",
    "district":"",
    "lat":14.8279733,
    "lon":74.16032421,
    "area_m2":8965985.04
  },
  "585229":{
    "office_name":"Shahabad ACC",
    "office_type":"S.O",
    "state":"Karnataka",
    "district":"Kalaburagi",
    "lat":17.1491654,
    "lon":76.95572969,
    "area_m2":37137971.4
  },
  "585415":{
    "office_name":"Hallikhed SF",
    "office_type":"S.O",
    "state":"Karnataka",
    "district":"Bidar",
    "lat":17.86727726,
    "lon":77.32303565,
    "area_m2":70984538.69
  },
  "586102":{
    "office_name":"Bijapur Sainik School",
    "office_type":"S.O",
    "state":"Karnataka",
    "district":"",
    "lat":16.76597515,
    "lon":75.79013368,
    "area_m2":272045984.6
  },
  "591116":{
    "office_name":"Naviluteertha",
    "office_type":"S.O",
    "state":"Karnataka",
    "district":"",
    "lat":15.79726579,
    "lon":75.13642559,
    "area_m2":23460504.85
  },
  "600027":{
    "office_name":"Chennai Airport",
    "office_type":"S.O",
    "state":"Tamil Nadu",
    "district":"",
    "lat":12.98656761,
    "lon":80.17042025,
    "area_m2":8959303.272
  },
  "600029":{
    "office_name":"Aminjikarai",
    "office_type":"S.O",
    "state":"Tamil Nadu",
    "district":"",
    "lat":13.07048729,
    "lon":80.22126536,
    "area_m2":1231039.15
  },
  "600065":{
    "office_name":"CRP Camp Tiruvallur",
    "office_type":"S.O",
    "state":"Tamil Nadu",
    "district":"",
    "lat":13.15497122,
    "lon":80.08567437,
    "area_m2":2003341.787
  },
  "600079":{
    "office_name":"Sowcarpet",
    "office_type":"S.O",
    "state":"Tamil Nadu",
    "district":"",
    "lat":13.10144676,
    "lon":80.27548112,
    "area_m2":2088650.236
  },
  "600098":{
    "office_name":"Sidco Estate",
    "office_type":"S.O",
    "state":"Tamil Nadu",
    "district":"",
    "lat":13.10680642,
    "lon":80.17181189,
    "area_m2":3222166.85
  },
  "600112":{
    "office_name":"Choolai",
    "office_type":"S.O",
    "state":"Tamil Nadu",
    "district":"",
    "lat":13.09228453,
    "lon":80.26308669,
    "area_m2":886459.9197
  },
  "625519":{
    "office_name":"Highwavys",
    "office_type":"S.O",
    "state":"Tamil Nadu",
    "district":"Theni",
    "lat":9.63439836,
    "lon":77.35298853,
    "area_m2":15391876.07
  },
  "625538":{
    "office_name":"Venniar Estate",
    "office_type":"S.O",
    "state":"Tamil Nadu",
    "district":"",
    "lat":9.60349398,
    "lon":77.32945195,
    "area_m2":15688911.84
  },
  "627659":{
    "office_name":"Karaichuthupudur",
    "office_type":"S.O",
    "state":"Tamil Nadu",
    "district":"",
    "lat":8.26244429,
    "lon":77.80600866,
    "area_m2":53768207.98
  },
  "628003":{
    "office_name":"New Colony Tuticorin",
    "office_type":"S.O",
    "state":"Tamil Nadu",
    "district":"Tuticorin",
    "lat":8.79885737,
    "lon":78.14965312,
    "area_m2":2433551.882
  },
  "630004":{
    "office_name":"Ae College",
    "office_type":"S.O",
    "state":"Tamil Nadu",
    "district":"",
    "lat":10.0932097,
    "lon":78.79711912,
    "area_m2":483397.7162
  },
  "630006":{
    "office_name":"Cecri Campus",
    "office_type":"S.O",
    "state":"Tamil Nadu",
    "district":"",
    "lat":10.082672,
    "lon":78.8039968,
    "area_m2":3610251.542
  },
  "636812":{
    "office_name":"Panjapalli",
    "office_type":"S.O",
    "state":"Tamil Nadu",
    "district":"Dharmapuri",
    "lat":12.4548136,
    "lon":77.96904463,
    "area_m2":84090302.9
  },
  "641040":{
    "office_name":"Subramaniapuram",
    "office_type":"S.O",
    "state":"Tamil Nadu",
    "district":"Coimbatore",
    "lat":11.01022344,
    "lon":76.94164534,
    "area_m2":602189.4459
  },
  "643228":{
    "office_name":"Seaforth",
    "office_type":"S.O",
    "state":"Tamil Nadu",
    "district":"",
    "lat":11.42571766,
    "lon":76.44873797,
    "area_m2":43158873.49
  },
  "670051":{
    "office_name":"Kannur NDC",
    "office_type":"S.O",
    "state":"Kerala",
    "district":"Kannur",
    "lat":11.8750858,
    "lon":75.3696269,
    "area_m2":336096.5399
  },
  "673051":{
    "office_name":"Kozhikode Parcel Centre",
    "office_type":"S.O",
    "state":"Kerala",
    "district":"Kozhikode",
    "lat":11.25805965,
    "lon":75.77959977,
    "area_m2":2562541.539
  },
  "678051":{
    "office_name":"Palakkad NDC",
    "office_type":"H.O",
    "state":"Kerala",
    "district":"Palakkad",
    "lat":10.78210948,
    "lon":76.65324345,
    "area_m2":2479597.389
  },
  "682050":{
    "office_name":"Kochi Parcel Centre",
    "office_type":"S.O",
    "state":"Kerala",
    "district":"Ernakulam",
    "lat":9.9746762,
    "lon":76.28726007,
    "area_m2":168706.8559
  },
  "682051":{
    "office_name":"International Business Centre",
    "office_type":"S.O",
    "state":"Kerala",
    "district":"Ernakulam",
    "lat":9.97726541,
    "lon":76.28657055,
    "area_m2":178115.6277
  },
  "682052":{
    "office_name":"Kakkanad NDC",
    "office_type":"S.O",
    "state":"Kerala",
    "district":"Ernakulam",
    "lat":10.02744521,
    "lon":76.34434635,
    "area_m2":2858805.782
  },
  "689713":{
    "office_name":"Sabarimala",
    "office_type":"S.O",
    "state":"Kerala",
    "district":"Pathanamthitta",
    "lat":9.43596656,
    "lon":77.11003926,
    "area_m2":58566931.59
  },
  "695051":{
    "office_name":"NDC Trivandrum Fort",
    "office_type":"S.O",
    "state":"Kerala",
    "district":"Thiruvananthapuram",
    "lat":8.48585759,
    "lon":76.94359317,
    "area_m2":582189.5139
  },
  "700098":{
    "office_name":"Bidhan Nagar Sai Complex",
    "office_type":"S.O",
    "state":"West Bengal",
    "district":"",
    "lat":22.56153728,
    "lon":88.43552993,
    "area_m2":11051496.3
  },
  "712419":{
    "office_name":"Jangalapara",
    "office_type":"S.O",
    "state":"West Bengal",
    "district":"",
    "lat":22.85335899,
    "lon":87.95286,
    "area_m2":9637275.025
  },
  "712424":{
    "office_name":"Antpur",
    "office_type":"S.O",
    "state":"West Bengal",
    "district":"",
    "lat":22.75923194,
    "lon":88.0487495,
    "area_m2":1766421.727
  },
  "712704":{
    "office_name":"Kumirmorah",
    "office_type":"S.O",
    "state":"West Bengal",
    "district":"",
    "lat":22.69381387,
    "lon":88.21966265,
    "area_m2":6386067.427
  },
  "712705":{
    "office_name":"Kristarampur",
    "office_type":"S.O",
    "state":"West Bengal",
    "district":"",
    "lat":22.72251017,
    "lon":88.21622291,
    "area_m2":7956518.835
  },
  "712707":{
    "office_name":"Illahipur",
    "office_type":"S.O",
    "state":"West Bengal",
    "district":"",
    "lat":22.79843883,
    "lon":88.173915,
    "area_m2":11675878.92
  },
  "712708":{
    "office_name":"Garalgacha",
    "office_type":"S.O",
    "state":"West Bengal",
    "district":"",
    "lat":22.67226808,
    "lon":88.26613697,
    "area_m2":1794319.891
  },
  "713155":{
    "office_name":"Amaragarh",
    "office_type":"S.O",
    "state":"West Bengal",
    "district":"",
    "lat":23.4270209,
    "lon":87.58320816,
    "area_m2":20970782.5
  },
  "713156":{
    "office_name":"Ausgram",
    "office_type":"S.O",
    "state":"West Bengal",
    "district":"",
    "lat":23.51057709,
    "lon":87.65059865,
    "area_m2":37040523.3
  },
  "713158":{
    "office_name":"Barabelun",
    "office_type":"S.O",
    "state":"West Bengal",
    "district":"",
    "lat":23.40222044,
    "lon":87.9731076,
    "area_m2":21612986.45
  },
  "713165":{
    "office_name":"Nasigram",
    "office_type":"S.O",
    "state":"West Bengal",
    "district":"",
    "lat":23.41997713,
    "lon":88.0145307,
    "area_m2":31472808.02
  },
  "713168":{
    "office_name":"Paharhati",
    "office_type":"S.O",
    "state":"West Bengal",
    "district":"",
    "lat":23.24446456,
    "lon":88.09534677,
    "area_m2":21659011.44
  },
  "713169":{
    "office_name":"Shilampur",
    "office_type":"S.O",
    "state":"West Bengal",
    "district":"",
    "lat":23.42955495,
    "lon":87.4300418,
    "area_m2":11836031.78
  },
  "713170":{
    "office_name":"Singerkone",
    "office_type":"S.O",
    "state":"West Bengal",
    "district":"",
    "lat":23.16475402,
    "lon":88.27899666,
    "area_m2":5022820.02
  },
  "713171":{
    "office_name":"Suata",
    "office_type":"S.O",
    "state":"West Bengal",
    "district":"",
    "lat":23.43919906,
    "lon":87.6116,
    "area_m2":12424995.49
  },
  "713172":{
    "office_name":"Trilokchandpur",
    "office_type":"S.O",
    "state":"West Bengal",
    "district":"",
    "lat":23.57531273,
    "lon":87.41437377,
    "area_m2":78599423.63
  },
  "713173":{
    "office_name":"Uniatatarpur",
    "office_type":"S.O",
    "state":"West Bengal",
    "district":"",
    "lat":23.55168797,
    "lon":87.75902856,
    "area_m2":3774323.338
  },
  "713218":{
    "office_name":"Naudiha",
    "office_type":"S.O",
    "state":"West Bengal",
    "district":"",
    "lat":23.47262476,
    "lon":87.34510674,
    "area_m2":17113309.01
  },
  "713219":{
    "office_name":"Gopinathpur",
    "office_type":"S.O",
    "state":"West Bengal",
    "district":"",
    "lat":23.49558629,
    "lon":87.33867396,
    "area_m2":1382858.304
  },
  "713368":{
    "office_name":"Churulia",
    "office_type":"S.O",
    "state":"West Bengal",
    "district":"",
    "lat":23.77185763,
    "lon":87.09156685,
    "area_m2":57862408.11
  },
  "713375":{
    "office_name":"Benali",
    "office_type":"S.O",
    "state":"West Bengal",
    "district":"",
    "lat":23.675713,
    "lon":87.07849232,
    "area_m2":1615657.311
  },
  "713377":{
    "office_name":"Gourbazar",
    "office_type":"S.O",
    "state":"West Bengal",
    "district":"",
    "lat":23.67349753,
    "lon":87.40251834,
    "area_m2":6977676.792
  },
  "713380":{
    "office_name":"Kendra",
    "office_type":"S.O",
    "state":"West Bengal",
    "district":"",
    "lat":23.72014221,
    "lon":87.21276904,
    "area_m2":12011438.31
  },
  "713383":{
    "office_name":"Satgram",
    "office_type":"S.O",
    "state":"West Bengal",
    "district":"",
    "lat":23.65070763,
    "lon":87.08284543,
    "area_m2":1125004.78
  },
  "713402":{
    "office_name":"Arjunpur Bardhaman",
    "office_type":"S.O",
    "state":"West Bengal",
    "district":"",
    "lat":23.40534562,
    "lon":87.51361626,
    "area_m2":5710726.368
  },
  "713425":{
    "office_name":"Simlon",
    "office_type":"S.O",
    "state":"West Bengal",
    "district":"",
    "lat":23.26600358,
    "lon":88.25187917,
    "area_m2":14389289.76
  },
  "713429":{
    "office_name":"Barapalashan",
    "office_type":"S.O",
    "state":"West Bengal",
    "district":"",
    "lat":23.31200932,
    "lon":88.09926648,
    "area_m2":11099348.0
  },
  "713430":{
    "office_name":"Bohar",
    "office_type":"S.O",
    "state":"West Bengal",
    "district":"",
    "lat":23.26498326,
    "lon":88.2009675,
    "area_m2":22678779.21
  },
  "713433":{
    "office_name":"Ura",
    "office_type":"S.O",
    "state":"West Bengal",
    "district":"",
    "lat":23.31648757,
    "lon":87.72227439,
    "area_m2":5571674.67
  },
  "713434":{
    "office_name":"Nibhuji Bazar",
    "office_type":"S.O",
    "state":"West Bengal",
    "district":"",
    "lat":23.23448656,
    "lon":88.34171716,
    "area_m2":2160423.522
  },
  "713501":{
    "office_name":"Bagnapara",
    "office_type":"S.O",
    "state":"West Bengal",
    "district":"",
    "lat":23.21834267,
    "lon":88.27398339,
    "area_m2":24604598.25
  },
  "713516":{
    "office_name":"Panuhat",
    "office_type":"S.O",
    "state":"West Bengal",
    "district":"",
    "lat":23.63103126,
    "lon":88.1340173,
    "area_m2":3297718.906
  },
  "713517":{
    "office_name":"Sudpur",
    "office_type":"S.O",
    "state":"West Bengal",
    "district":"",
    "lat":23.59159617,
    "lon":88.13317766,
    "area_m2":9398951.219
  },
  "721167":{
    "office_name":"Dalpara",
    "office_type":"S.O",
    "state":"West Bengal",
    "district":"",
    "lat":22.43285051,
    "lon":87.718355,
    "area_m2":6461588.73
  },
  "722107":{
    "office_name":"Bhadul",
    "office_type":"S.O",
    "state":"West Bengal",
    "district":"",
    "lat":23.21638564,
    "lon":87.0937033,
    "area_m2":7359086.229
  },
  "722110":{
    "office_name":"Dhansimla",
    "office_type":"S.O",
    "state":"West Bengal",
    "district":"",
    "lat":23.24879263,
    "lon":87.44620875,
    "area_m2":36223575.03
  },
  "722111":{
    "office_name":"Dipara",
    "office_type":"S.O",
    "state":"West Bengal",
    "district":"",
    "lat":23.39596633,
    "lon":87.40846441,
    "area_m2":15634799.19
  },
  "722145":{
    "office_name":"Peardoba",
    "office_type":"S.O",
    "state":"West Bengal",
    "district":"",
    "lat":22.96054343,
    "lon":87.31740401,
    "area_m2":37160711.48
  },
  "722163":{
    "office_name":"Ajodhya",
    "office_type":"S.O",
    "state":"West Bengal",
    "district":"",
    "lat":23.16747489,
    "lon":87.27438278,
    "area_m2":12167380.95
  },
  "722168":{
    "office_name":"Ghutgoria",
    "office_type":"S.O",
    "state":"West Bengal",
    "district":"",
    "lat":23.44521504,
    "lon":87.262185,
    "area_m2":8662992.413
  },
  "722169":{
    "office_name":"Gobindadham",
    "office_type":"S.O",
    "state":"West Bengal",
    "district":"",
    "lat":23.35103236,
    "lon":87.11029608,
    "area_m2":9333867.545
  },
  "722170":{
    "office_name":"Helna Susunia",
    "office_type":"S.O",
    "state":"West Bengal",
    "district":"",
    "lat":23.18919935,
    "lon":87.01123579,
    "area_m2":8972870.258
  },
  "722171":{
    "office_name":"Hirbandh",
    "office_type":"S.O",
    "state":"West Bengal",
    "district":"",
    "lat":23.04937215,
    "lon":86.83044487,
    "area_m2":119913133.0
  },
  "722172":{
    "office_name":"Jagadalla",
    "office_type":"S.O",
    "state":"West Bengal",
    "district":"",
    "lat":23.19733343,
    "lon":87.06971311,
    "area_m2":13581013.65
  },
  "722174":{
    "office_name":"Lodna Bankura",
    "office_type":"S.O",
    "state":"West Bengal",
    "district":"",
    "lat":23.14057469,
    "lon":87.10433127,
    "area_m2":34135216.11
  },
  "722175":{
    "office_name":"Mankanali",
    "office_type":"S.O",
    "state":"West Bengal",
    "district":"",
    "lat":23.3244652,
    "lon":87.0261298,
    "area_m2":44239526.18
  },
  "722178":{
    "office_name":"Purandapur",
    "office_type":"S.O",
    "state":"West Bengal",
    "district":"",
    "lat":23.29396019,
    "lon":87.07442813,
    "area_m2":20958964.52
  },
  "722179":{
    "office_name":"Ratanpur Bankura",
    "office_type":"S.O",
    "state":"West Bengal",
    "district":"",
    "lat":23.09968764,
    "lon":87.06618037,
    "area_m2":35076920.04
  },
  "722180":{
    "office_name":"Sanbandha",
    "office_type":"S.O",
    "state":"West Bengal",
    "district":"",
    "lat":23.23444356,
    "lon":87.094315,
    "area_m2":5145193.959
  },
  "722181":{
    "office_name":"West sanabandh",
    "office_type":"S.O",
    "state":"West Bengal",
    "district":"",
    "lat":23.25715089,
    "lon":86.97953851,
    "area_m2":40159787.12
  },
  "722182":{
    "office_name":"Susunia",
    "office_type":"S.O",
    "state":"West Bengal",
    "district":"",
    "lat":23.39872782,
    "lon":86.9782545,
    "area_m2":17914069.82
  },
  "723161":{
    "office_name":"Bargoria",
    "office_type":"S.O",
    "state":"West Bengal",
    "district":"",
    "lat":23.63105182,
    "lon":86.8279227,
    "area_m2":8853489.806
  },
  "723168":{
    "office_name":"Manihara",
    "office_type":"S.O",
    "state":"West Bengal",
    "district":"",
    "lat":23.42523793,
    "lon":86.82445376,
    "area_m2":4821444.358
  },
  "732143":{
    "office_name":"Arapur",
    "office_type":"S.O",
    "state":"West Bengal",
    "district":"",
    "lat":25.03807997,
    "lon":88.11370169,
    "area_m2":1413374.35
  },
  "732147":{
    "office_name":"Bamangola",
    "office_type":"S.O",
    "state":"West Bengal",
    "district":"",
    "lat":25.15018008,
    "lon":88.32903251,
    "area_m2":40196177.68
  },
  "732150":{
    "office_name":"Kharba",
    "office_type":"S.O",
    "state":"West Bengal",
    "district":"",
    "lat":25.42469939,
    "lon":88.08637565,
    "area_m2":9235599.488
  },
  "732211":{
    "office_name":"Milki",
    "office_type":"S.O",
    "state":"West Bengal",
    "district":"",
    "lat":25.01529838,
    "lon":88.0021925,
    "area_m2":6289004.831
  },
  "732212":{
    "office_name":"Jadupur",
    "office_type":"S.O",
    "state":"West Bengal",
    "district":"",
    "lat":24.89053994,
    "lon":88.060395,
    "area_m2":5381737.646
  },
  "732213":{
    "office_name":"Pukhuria",
    "office_type":"S.O",
    "state":"West Bengal",
    "district":"",
    "lat":25.13513579,
    "lon":88.0218625,
    "area_m2":11487170.19
  },
  "732214":{
    "office_name":"Araidanga",
    "office_type":"S.O",
    "state":"West Bengal",
    "district":"",
    "lat":25.12956677,
    "lon":87.99016945,
    "area_m2":9983991.749
  },
  "734121":{
    "office_name":"Dooteriah",
    "office_type":"S.O",
    "state":"West Bengal",
    "district":"",
    "lat":26.97441862,
    "lon":88.23329503,
    "area_m2":26488042.5
  },
  "734122":{
    "office_name":"Pulbazar",
    "office_type":"S.O",
    "state":"West Bengal",
    "district":"",
    "lat":27.06082043,
    "lon":88.19874546,
    "area_m2":8688890.903
  },
  "734123":{
    "office_name":"Rangbull",
    "office_type":"S.O",
    "state":"West Bengal",
    "district":"",
    "lat":26.99010345,
    "lon":88.27315223,
    "area_m2":2679708.356
  },
  "734124":{
    "office_name":"Tukvar",
    "office_type":"S.O",
    "state":"West Bengal",
    "district":"",
    "lat":27.09636889,
    "lon":88.25756962,
    "area_m2":17025830.74
  },
  "734219":{
    "office_name":"Rongmook Ceder Tea Garden",
    "office_type":"S.O",
    "state":"West Bengal",
    "district":"",
    "lat":26.94744976,
    "lon":88.25854251,
    "area_m2":41445435.68
  },
  "734227":{
    "office_name":"Soureni Bazar",
    "office_type":"S.O",
    "state":"West Bengal",
    "district":"",
    "lat":26.86257867,
    "lon":88.2045018,
    "area_m2":5550540.035
  },
  "734317":{
    "office_name":"Echhey",
    "office_type":"S.O",
    "state":"West Bengal",
    "district":"",
    "lat":27.1245513,
    "lon":88.56425929,
    "area_m2":12076556.3
  },
  "734319":{
    "office_name":"Lava",
    "office_type":"S.O",
    "state":"West Bengal",
    "district":"",
    "lat":27.11879101,
    "lon":88.67605932,
    "area_m2":91242691.25
  },
  "734320":{
    "office_name":"Kalijhora",
    "office_type":"S.O",
    "state":"West Bengal",
    "district":"",
    "lat":26.93855585,
    "lon":88.43005389,
    "area_m2":16443935.81
  },
  "734321":{
    "office_name":"Reang",
    "office_type":"S.O",
    "state":"West Bengal",
    "district":"",
    "lat":27.00335184,
    "lon":88.42151226,
    "area_m2":15239868.59
  },
  "734431":{
    "office_name":"Sahabad",
    "office_type":"S.O",
    "state":"West Bengal",
    "district":"",
    "lat":26.7718421,
    "lon":88.281205,
    "area_m2":16234812.38
  },
  "734436":{
    "office_name":"Chathat",
    "office_type":"S.O",
    "state":"West Bengal",
    "district":"",
    "lat":26.53378987,
    "lon":88.32379874,
    "area_m2":75935296.24
  },
  "737117":{
    "office_name":"Kabi",
    "office_type":"S.O",
    "state":"Sikkim",
    "district":"",
    "lat":27.44965929,
    "lon":88.71708448,
    "area_m2":194566078.3
  },
  "737118":{
    "office_name":"Phensong",
    "office_type":"S.O",
    "state":"Sikkim",
    "district":"",
    "lat":27.42950722,
    "lon":88.62152019,
    "area_m2":10002144.29
  },
  "737119":{
    "office_name":"Phudong",
    "office_type":"S.O",
    "state":"Sikkim",
    "district":"",
    "lat":27.40647618,
    "lon":88.5780741,
    "area_m2":17757048.43
  },
  "737138":{
    "office_name":"Makha",
    "office_type":"S.O",
    "state":"Sikkim",
    "district":"",
    "lat":27.304281,
    "lon":88.48109412,
    "area_m2":49144986.26
  },
  "743356":{
    "office_name":"Mud Point",
    "office_type":"S.O",
    "state":"West Bengal",
    "district":"24 Paraganas South",
    "lat":21.92079049,
    "lon":88.12163462,
    "area_m2":43747071.98
  },
  "743384":{
    "office_name":"Bawali",
    "office_type":"S.O",
    "state":"West Bengal",
    "district":"",
    "lat":22.424769,
    "lon":88.19526248,
    "area_m2":17993344.23
  },
  "743385":{
    "office_name":"Sarberia",
    "office_type":"S.O",
    "state":"West Bengal",
    "district":"",
    "lat":22.26405984,
    "lon":88.4481345,
    "area_m2":1512387.294
  },
  "743391":{
    "office_name":"Gocharan",
    "office_type":"S.O",
    "state":"West Bengal",
    "district":"",
    "lat":22.27795274,
    "lon":88.45032291,
    "area_m2":2618552.829
  },
  "743392":{
    "office_name":"Muri Ganga",
    "office_type":"S.O",
    "state":"West Bengal",
    "district":"",
    "lat":21.83309778,
    "lon":88.1562474,
    "area_m2":7769892.664
  },
  "743396":{
    "office_name":"Dhosa",
    "office_type":"S.O",
    "state":"West Bengal",
    "district":"",
    "lat":22.24481852,
    "lon":88.53576598,
    "area_m2":4664748.863
  },
  "743398":{
    "office_name":"Kanya Nagar",
    "office_type":"S.O",
    "state":"West Bengal",
    "district":"",
    "lat":22.36253288,
    "lon":88.265825,
    "area_m2":10287935.52
  },
  "743507":{
    "office_name":"Bodra",
    "office_type":"S.O",
    "state":"West Bengal",
    "district":"",
    "lat":22.43922033,
    "lon":88.60796101,
    "area_m2":18237733.31
  },
  "743601":{
    "office_name":"Gokarnee",
    "office_type":"S.O",
    "state":"West Bengal",
    "district":"",
    "lat":22.25870172,
    "lon":88.39893455,
    "area_m2":6019178.099
  },
  "743603":{
    "office_name":"Kautala",
    "office_type":"S.O",
    "state":"West Bengal",
    "district":"",
    "lat":22.07063003,
    "lon":88.41260673,
    "area_m2":36694586.9
  },
  "743606":{
    "office_name":"Gangasagar",
    "office_type":"S.O",
    "state":"West Bengal",
    "district":"",
    "lat":21.65160821,
    "lon":88.07829059,
    "area_m2":13905063.23
  },
  "751026":{
    "office_name":"NMD OF PARCEL CENTRE Bhubaneswar",
    "office_type":"S.O",
    "state":"Odisha",
    "district":"Khordha",
    "lat":20.26707129,
    "lon":85.83530146,
    "area_m2":843299.5324
  },
  "751027":{
    "office_name":"International Business Centre",
    "office_type":"S.O",
    "state":"Odisha",
    "district":"Khordha",
    "lat":20.3497759,
    "lon":85.81588974,
    "area_m2":3102644.374
  },
  "751033":{
    "office_name":"Baramunda NDC",
    "office_type":"S.O",
    "state":"Odisha",
    "district":"Khordha",
    "lat":20.27885258,
    "lon":85.78926219,
    "area_m2":3275754.931
  },
  "751034":{
    "office_name":"Rasulgarh NDC",
    "office_type":"S.O",
    "state":"Odisha",
    "district":"Khordha",
    "lat":20.3070748,
    "lon":85.8535694,
    "area_m2":3187455.999
  },
  "753016":{
    "office_name":"NDC Cuttack",
    "office_type":"S.O",
    "state":"Odisha",
    "district":"Cuttack",
    "lat":20.41312208,
    "lon":85.87907377,
    "area_m2":32952744.93
  },
  "754143":{
    "office_name":"Sector 21",
    "office_type":"S.O",
    "state":"Odisha",
    "district":"Jagatsinghapur",
    "lat":20.30330124,
    "lon":86.64959361,
    "area_m2":3540498.98
  },
  "754159":{
    "office_name":"Gadama",
    "office_type":"S.O",
    "state":"Odisha",
    "district":"",
    "lat":20.35674408,
    "lon":86.10784284,
    "area_m2":4849263.981
  },
  "759104":{
    "office_name":"Santhapada",
    "office_type":"S.O",
    "state":"Odisha",
    "district":"Anugul",
    "lat":20.89430015,
    "lon":85.23101489,
    "area_m2":20363495.41
  },
  "759136":{
    "office_name":"Raijharan",
    "office_type":"B.O",
    "state":"Odisha",
    "district":"",
    "lat":20.93050334,
    "lon":84.93088708,
    "area_m2":56622489.15
  },
  "759139":{
    "office_name":"Budhapanka",
    "office_type":"S.O",
    "state":"Odisha",
    "district":"",
    "lat":20.85792913,
    "lon":85.24268538,
    "area_m2":17234167.16
  },
  "761142":{
    "office_name":"Jhadabhumi",
    "office_type":"B.O",
    "state":"Odisha",
    "district":"",
    "lat":19.93314608,
    "lon":84.7139507,
    "area_m2":8779580.114
  },
  "764069":{
    "office_name":"Anchalgumma",
    "office_type":"S.O",
    "state":"Odisha",
    "district":"",
    "lat":19.31221433,
    "lon":82.6661205,
    "area_m2":14425534.55
  },
  "768026":{
    "office_name":"Chiplima",
    "office_type":"S.O",
    "state":"Odisha",
    "district":"",
    "lat":21.3160902,
    "lon":83.89726647,
    "area_m2":40136418.97
  },
  "768041":{
    "office_name":"DLQCC",
    "office_type":"S.O",
    "state":"Odisha",
    "district":"",
    "lat":21.72921397,
    "lon":83.57027431,
    "area_m2":32103572.27
  },
  "768101":{
    "office_name":"Sambalpur M OG Part",
    "office_type":"S.O",
    "state":"Odisha",
    "district":"",
    "lat":21.51807352,
    "lon":83.95441697,
    "area_m2":6228965.224
  },
  "769041":{
    "office_name":"Ved Vyas",
    "office_type":"B.O",
    "state":"Odisha",
    "district":"",
    "lat":22.2392955,
    "lon":84.77672418,
    "area_m2":4910805.988
  },
  "781002":{
    "office_name":"Guwahati G P O",
    "office_type":"H.O",
    "state":"Assam",
    "district":"Kamrup Metro",
    "lat":26.17855803,
    "lon":91.73960175,
    "area_m2":255225.4153
  },
  "781130":{
    "office_name":"Amranga",
    "office_type":"B.O",
    "state":"Assam",
    "district":"",
    "lat":26.01926311,
    "lon":91.52183218,
    "area_m2":1701530.976
  },
  "781358":{
    "office_name":"Sanekuchi",
    "office_type":"S.O",
    "state":"Assam",
    "district":"",
    "lat":26.35506843,
    "lon":91.51025178,
    "area_m2":3874411.175
  },
  "782107":{
    "office_name":"Barapujia",
    "office_type":"S.O",
    "state":"Assam",
    "district":"",
    "lat":26.29660801,
    "lon":92.47415973,
    "area_m2":24620051.2
  },
  "782108":{
    "office_name":"Mikirbheta",
    "office_type":"S.O",
    "state":"Assam",
    "district":"",
    "lat":26.31083781,
    "lon":92.44631001,
    "area_m2":8867773.739
  },
  "782475":{
    "office_name":"Chakihola",
    "office_type":"B.O",
    "state":"Assam",
    "district":"",
    "lat":26.44653559,
    "lon":93.77466033,
    "area_m2":15395415.37
  },
  "783121":{
    "office_name":"Baladmari",
    "office_type":"S.O",
    "state":"Assam",
    "district":"",
    "lat":26.1736561,
    "lon":90.66420433,
    "area_m2":54207610.52
  },
  "783338":{
    "office_name":"Satrasal",
    "office_type":"S.O",
    "state":"Assam",
    "district":"",
    "lat":26.16308296,
    "lon":89.73184914,
    "area_m2":3398273.894
  },
  "783351":{
    "office_name":"Lakhiganj Bazar",
    "office_type":"S.O",
    "state":"Assam",
    "district":"",
    "lat":26.26888485,
    "lon":90.26999662,
    "area_m2":9678877.272
  },
  "783374":{
    "office_name":"Titaguri",
    "office_type":"B.O",
    "state":"Assam",
    "district":"",
    "lat":26.46376782,
    "lon":90.26813035,
    "area_m2":23414425.83
  },
  "784118":{
    "office_name":"Borsola",
    "office_type":"B.O",
    "state":"Assam",
    "district":"",
    "lat":26.69942153,
    "lon":92.51052424,
    "area_m2":18232353.31
  },
  "784152":{
    "office_name":"Khelmati",
    "office_type":"S.O",
    "state":"Assam",
    "district":"",
    "lat":26.80422662,
    "lon":92.76268421,
    "area_m2":16155549.19
  },
  "784162":{
    "office_name":"Badati",
    "office_type":"S.O",
    "state":"Assam",
    "district":"",
    "lat":26.96081151,
    "lon":93.93813475,
    "area_m2":16033305.08
  },
  "784181":{
    "office_name":"Bakola",
    "office_type":"S.O",
    "state":"Assam",
    "district":"",
    "lat":26.77924147,
    "lon":92.97103052,
    "area_m2":35746172.57
  },
  "784183":{
    "office_name":"Nagshankar",
    "office_type":"S.O",
    "state":"Assam",
    "district":"",
    "lat":26.71630977,
    "lon":92.99776427,
    "area_m2":4806254.724
  },
  "785005":{
    "office_name":"Jorhat Air Field",
    "office_type":"S.O",
    "state":"Assam",
    "district":"",
    "lat":26.72004962,
    "lon":94.17897654,
    "area_m2":9461862.144
  },
  "785617":{
    "office_name":"Dahotia",
    "office_type":"S.O",
    "state":"Assam",
    "district":"",
    "lat":26.7080811,
    "lon":94.13923876,
    "area_m2":13326477.3
  },
  "785660":{
    "office_name":"Betbari",
    "office_type":"S.O",
    "state":"Assam",
    "district":"",
    "lat":27.00967674,
    "lon":94.67784304,
    "area_m2":13389008.25
  },
  "786624":{
    "office_name":"Barbam",
    "office_type":"S.O",
    "state":"Assam",
    "district":"",
    "lat":27.14483756,
    "lon":95.0665141,
    "area_m2":5775917.025
  },
  "788012":{
    "office_name":"Chittaranjan Avenue Cachar",
    "office_type":"S.O",
    "state":"Assam",
    "district":"",
    "lat":24.80663297,
    "lon":92.78332747,
    "area_m2":2414410.045
  },
  "788122":{
    "office_name":"Maniarkhal",
    "office_type":"S.O",
    "state":"Assam",
    "district":"",
    "lat":24.57276517,
    "lon":92.96856941,
    "area_m2":17926762.63
  },
  "788706":{
    "office_name":"Mahakhal",
    "office_type":"B.O",
    "state":"Assam",
    "district":"",
    "lat":24.83067243,
    "lon":92.49649876,
    "area_m2":9075262.738
  },
  "788721":{
    "office_name":"Latu",
    "office_type":"S.O",
    "state":"Assam",
    "district":"",
    "lat":24.84290767,
    "lon":92.26600184,
    "area_m2":7785411.748
  },
  "788733":{
    "office_name":"Bazarghat Karimganj",
    "office_type":"S.O",
    "state":"Assam",
    "district":"Karimganj",
    "lat":24.61705242,
    "lon":92.40953864,
    "area_m2":24940404.2
  },
  "788834":{
    "office_name":"Khejurbond",
    "office_type":"S.O",
    "state":"Assam",
    "district":"",
    "lat":25.32804966,
    "lon":93.09179148,
    "area_m2":124889576.6
  },
  "792055":{
    "office_name":"Vijoynagar",
    "office_type":"S.O",
    "state":"Arunachal Pradesh",
    "district":"Changlang",
    "lat":27.26351778,
    "lon":96.96226622,
    "area_m2":838593380.0
  },
  "793111":{
    "office_name":"Cherrabazar",
    "office_type":"S.O",
    "state":"Meghalaya",
    "district":"East Khasi Hills",
    "lat":25.35236658,
    "lon":91.75863527,
    "area_m2":432455237.3
  },
  "795105":{
    "office_name":"Ngari Khullen",
    "office_type":"B.O",
    "state":"Manipur",
    "district":"Senapati",
    "lat":25.34464043,
    "lon":94.31241409,
    "area_m2":212079127.5
  },
  "795143":{
    "office_name":"Thanlon",
    "office_type":"S.O",
    "state":"Manipur",
    "district":"",
    "lat":24.26756533,
    "lon":93.25185281,
    "area_m2":2020263310.0
  },
  "796036":{
    "office_name":"Sihphir",
    "office_type":"S.O",
    "state":"Mizoram",
    "district":"Aizawl",
    "lat":23.72611139,
    "lon":92.7160811,
    "area_m2":656564.9074
  },
  "796075":{
    "office_name":"Thingdawl",
    "office_type":"S.O",
    "state":"Mizoram",
    "district":"Kolasib",
    "lat":24.2259393,
    "lon":92.68166551,
    "area_m2":24623075.05
  },
  "796082":{
    "office_name":"Diakkawn",
    "office_type":"S.O",
    "state":"Mizoram",
    "district":"",
    "lat":24.16856468,
    "lon":92.70441143,
    "area_m2":20818128.58
  },
  "796230":{
    "office_name":"Sialsuk",
    "office_type":"S.O",
    "state":"Mizoram",
    "district":"Aizawl",
    "lat":23.72572823,
    "lon":92.72087796,
    "area_m2":505079.5094
  },
  "796471":{
    "office_name":"Zawlnuam",
    "office_type":"S.O",
    "state":"Mizoram",
    "district":"Mamit",
    "lat":24.16205478,
    "lon":92.39497834,
    "area_m2":317686831.4
  },
  "796581":{
    "office_name":"Thingsai",
    "office_type":"S.O",
    "state":"Mizoram",
    "district":"Hnahthial",
    "lat":22.92006101,
    "lon":93.08411384,
    "area_m2":276466584.8
  },
  "796710":{
    "office_name":"Bunghmun",
    "office_type":"S.O",
    "state":"Mizoram",
    "district":"Lunglei",
    "lat":23.24310542,
    "lon":92.47471157,
    "area_m2":515477403.9
  },
  "796730":{
    "office_name":"Lungsen",
    "office_type":"S.O",
    "state":"Mizoram",
    "district":"",
    "lat":22.63467625,
    "lon":92.73153872,
    "area_m2":943363002.3
  },
  "796772":{
    "office_name":"Kamalanagar",
    "office_type":"S.O",
    "state":"Mizoram",
    "district":"Lawngtlai",
    "lat":22.53580411,
    "lon":92.91262413,
    "area_m2":1792790.288
  },
  "796810":{
    "office_name":"Sangau",
    "office_type":"S.O",
    "state":"Mizoram",
    "district":"Lawngtlai",
    "lat":22.5420998,
    "lon":92.89932854,
    "area_m2":5629287.619
  },
  "796911":{
    "office_name":"Phura",
    "office_type":"B.O",
    "state":"Mizoram",
    "district":"",
    "lat":22.21466263,
    "lon":92.97793681,
    "area_m2":1211811754.0
  },
  "797021":{
    "office_name":"Kohima PWD",
    "office_type":"S.O",
    "state":"Nagaland",
    "district":"",
    "lat":25.65369414,
    "lon":94.10153302,
    "area_m2":4322795.072
  },
  "797100":{
    "office_name":"Doyang Hydel Project",
    "office_type":"S.O",
    "state":"Nagaland",
    "district":"",
    "lat":26.14074403,
    "lon":94.06094685,
    "area_m2":1235945384.0
  },
  "797102":{
    "office_name":"Chizami",
    "office_type":"S.O",
    "state":"Nagaland",
    "district":"",
    "lat":25.60662368,
    "lon":94.37630642,
    "area_m2":157252364.3
  },
  "797121":{
    "office_name":"High School Junction",
    "office_type":"S.O",
    "state":"Nagaland",
    "district":"Kohima",
    "lat":25.68366053,
    "lon":94.10229857,
    "area_m2":2159889.988
  },
  "798617":{
    "office_name":"Opangkong",
    "office_type":"S.O",
    "state":"Nagaland",
    "district":"",
    "lat":26.32254451,
    "lon":94.52628539,
    "area_m2":359190973.9
  },
  "798619":{
    "office_name":"Akuluto",
    "office_type":"S.O",
    "state":"Nagaland",
    "district":"",
    "lat":26.12360647,
    "lon":94.45020632,
    "area_m2":362952305.9
  },
  "800018":{
    "office_name":"Bataganj",
    "office_type":"S.O",
    "state":"Bihar",
    "district":"Patna",
    "lat":25.63153908,
    "lon":85.07558839,
    "area_m2":4229197.472
  },
  "800029":{
    "office_name":"Patel Nagar",
    "office_type":"S.O",
    "state":"Bihar",
    "district":"",
    "lat":25.61586321,
    "lon":85.10030989,
    "area_m2":2058302.567
  },
  "801501":{
    "office_name":"BR Centre",
    "office_type":"S.O",
    "state":"Bihar",
    "district":"",
    "lat":25.59168028,
    "lon":85.05192644,
    "area_m2":3861767.909
  },
  "804430":{
    "office_name":"K Bhupat",
    "office_type":"S.O",
    "state":"Bihar",
    "district":"",
    "lat":25.17699839,
    "lon":84.51392566,
    "area_m2":31852244.99
  },
  "804434":{
    "office_name":"Lakhawar ED",
    "office_type":"S.O",
    "state":"Bihar",
    "district":"",
    "lat":25.13646094,
    "lon":85.09011823,
    "area_m2":11497192.45
  },
  "805133":{
    "office_name":"Orro",
    "office_type":"S.O",
    "state":"Bihar",
    "district":"",
    "lat":24.90159769,
    "lon":85.42952605,
    "area_m2":17087455.21
  },
  "805135":{
    "office_name":"Ayer",
    "office_type":"S.O",
    "state":"Bihar",
    "district":"",
    "lat":24.91113776,
    "lon":85.262826,
    "area_m2":24756833.4
  },
  "805236":{
    "office_name":"Jethian",
    "office_type":"S.O",
    "state":"Bihar",
    "district":"",
    "lat":24.94449924,
    "lon":85.34806787,
    "area_m2":25438829.52
  },
  "813113":{
    "office_name":"Habibpur Bhagalpur",
    "office_type":"S.O",
    "state":"Bihar",
    "district":"",
    "lat":25.21690438,
    "lon":86.96589813,
    "area_m2":13688209.33
  },
  "814122":{
    "office_name":"Jhaunsa Garti",
    "office_type":"S.O",
    "state":"Jharkhand",
    "district":"",
    "lat":24.48379785,
    "lon":86.71274066,
    "area_m2":3637624.081
  },
  "824216":{
    "office_name":"Ketaki",
    "office_type":"S.O",
    "state":"Bihar",
    "district":"",
    "lat":24.61899005,
    "lon":84.47295381,
    "area_m2":18005387.81
  },
  "825335":{
    "office_name":"Pelawal",
    "office_type":"S.O",
    "state":"Jharkhand",
    "district":"",
    "lat":24.02120047,
    "lon":85.34923636,
    "area_m2":3589118.672
  },
  "826003":{
    "office_name":"Jagjivan Nagar",
    "office_type":"S.O",
    "state":"Jharkhand",
    "district":"Dhanbad",
    "lat":23.77717112,
    "lon":86.46243765,
    "area_m2":8866945.727
  },
  "827011":{
    "office_name":"BS City Plant",
    "office_type":"S.O",
    "state":"Jharkhand",
    "district":"",
    "lat":23.6789097,
    "lon":86.10848558,
    "area_m2":32259085.92
  },
  "828102":{
    "office_name":"Bhagabandh",
    "office_type":"B.O",
    "state":"Jharkhand",
    "district":"",
    "lat":23.85777848,
    "lon":86.72072878,
    "area_m2":4577622.659
  },
  "828127":{
    "office_name":"Saraidhela",
    "office_type":"S.O",
    "state":"Jharkhand",
    "district":"Dhanbad",
    "lat":23.80812108,
    "lon":86.45472001,
    "area_m2":1690623.548
  },
  "828308":{
    "office_name":"Bhatdih",
    "office_type":"S.O",
    "state":"Jharkhand",
    "district":"",
    "lat":23.71496269,
    "lon":86.37805451,
    "area_m2":2835674.165
  },
  "828311":{
    "office_name":"Amlabad Colliery",
    "office_type":"S.O",
    "state":"Jharkhand",
    "district":"",
    "lat":23.68390817,
    "lon":86.37519889,
    "area_m2":3548375.592
  },
  "829115":{
    "office_name":"Ponda",
    "office_type":"B.O",
    "state":"Jharkhand",
    "district":"",
    "lat":23.62058609,
    "lon":85.93036271,
    "area_m2":2257145.722
  },
  "829120":{
    "office_name":"Patratu Diesel Colony Ndedso",
    "office_type":"S.O",
    "state":"Jharkhand",
    "district":"",
    "lat":23.67774658,
    "lon":85.30198098,
    "area_m2":8372937.143
  },
  "829137":{
    "office_name":"Kander B O",
    "office_type":"B.O",
    "state":"Jharkhand",
    "district":"",
    "lat":23.6671926,
    "lon":85.62539964,
    "area_m2":13609234.38
  },
  "831010":{
    "office_name":"Telco G M Office",
    "office_type":"S.O",
    "state":"Jharkhand",
    "district":"",
    "lat":22.76803949,
    "lon":86.23709753,
    "area_m2":2856136.048
  },
  "831018":{
    "office_name":"MGM Medical College",
    "office_type":"S.O",
    "state":"Jharkhand",
    "district":"",
    "lat":22.81371822,
    "lon":86.21224017,
    "area_m2":286517.0268
  },
  "831021":{
    "office_name":"Nodal Delivery Office Jamshedpur",
    "office_type":"S.O",
    "state":"Jharkhand",
    "district":"East Singhbum",
    "lat":22.8191258,
    "lon":86.22183164,
    "area_m2":2159220.894
  },
  "831032":{
    "office_name":"Voltas Pvt Ltd Diagonal Road",
    "office_type":"S.O",
    "state":"Jharkhand",
    "district":"",
    "lat":22.78901257,
    "lon":86.18167064,
    "area_m2":3280086.342
  },
  "831033":{
    "office_name":"Tata Pigment",
    "office_type":"S.O",
    "state":"Jharkhand",
    "district":"",
    "lat":22.78641853,
    "lon":86.20076226,
    "area_m2":8987336.557
  },
  "832110":{
    "office_name":"Azadnagar",
    "office_type":"S.O",
    "state":"Jharkhand",
    "district":"",
    "lat":22.84065645,
    "lon":86.18743464,
    "area_m2":23054267.29
  },
  "834013":{
    "office_name":"Nodal Mechanized Delivery Office",
    "office_type":"S.O",
    "state":"Jharkhand",
    "district":"Ranchi",
    "lat":22.78102197,
    "lon":86.14352928,
    "area_m2":248508.927
  },
  "834026":{
    "office_name":"Chief Commissioner IT Deptt Main Rd",
    "office_type":"S.O",
    "state":"Jharkhand",
    "district":"",
    "lat":23.35302058,
    "lon":85.32774352,
    "area_m2":552685.4763
  },
  "835238":{
    "office_name":"Irba",
    "office_type":"S.O",
    "state":"Jharkhand",
    "district":"",
    "lat":23.46069288,
    "lon":85.43782824,
    "area_m2":3263966.598
  },
  "835240":{
    "office_name":"Boreya",
    "office_type":"S.O",
    "state":"Jharkhand",
    "district":"",
    "lat":23.42622708,
    "lon":85.33205683,
    "area_m2":9933408.418
  },
  "841105":{
    "office_name":"TM Pal",
    "office_type":"S.O",
    "state":"Bihar",
    "district":"",
    "lat":25.80755824,
    "lon":85.1574554,
    "area_m2":53561119.32
  },
  "841433":{
    "office_name":"Rasuali",
    "office_type":"S.O",
    "state":"Bihar",
    "district":"",
    "lat":26.11096404,
    "lon":84.84134041,
    "area_m2":28550694.11
  },
  "843143":{
    "office_name":"Karja",
    "office_type":"S.O",
    "state":"Bihar",
    "district":"",
    "lat":26.07584931,
    "lon":85.24318996,
    "area_m2":27555566.73
  },
  "843146":{
    "office_name":"Khabra",
    "office_type":"S.O",
    "state":"Bihar",
    "district":"",
    "lat":26.1038937,
    "lon":85.34658897,
    "area_m2":26144384.3
  },
  "843351":{
    "office_name":"Akhta",
    "office_type":"S.O",
    "state":"Bihar",
    "district":"",
    "lat":26.67271372,
    "lon":85.30070304,
    "area_m2":16164870.65
  },
  "844131":{
    "office_name":"Hansikewal",
    "office_type":"B.O",
    "state":"Bihar",
    "district":"",
    "lat":25.82823339,
    "lon":85.26716475,
    "area_m2":12887107.73
  },
  "845102":{
    "office_name":"Gaunaha",
    "office_type":"S.O",
    "state":"Bihar",
    "district":"",
    "lat":27.27613011,
    "lon":84.55163291,
    "area_m2":146611802.8
  },
  "900056":{
    "office_name":"1 CBPO",
    "office_type":"H.O",
    "state":"Delhi",
    "district":"Kushi Nagar",
    "lat":28.64193276,
    "lon":77.21586165,
    "area_m2":1118991.533
  },
  "900099":{
    "office_name":"2 CBPO",
    "office_type":"H.O",
    "state":"West Bengal",
    "district":"Kolkata",
    "lat":22.569681,
    "lon":88.34836072,
    "area_m2":81105.61803
  },
  "999999":{
    "office_name":"Test Office",
    "office_type":"S.O",
    "state":"Tamil Nadu",
    "district":"Nizamabad",
    "lat":11.68219928,
    "lon":77.92298422,
    "area_m2":7630347.897
  }
}